{
"type": "FeatureCollection",
"crs": { "type": "name", "properties": { "name": "urn:ogc:def:crs:OGC:1.3:CRS84" } },
"features": [
{ "type": "Feature", "properties": { "stationnames": "徐泾东", "linename": "地铁2号线(徐泾东-浦东国际机场)", "lon": 121.29487927407961, "lat": 31.190268554597314, "line": "地铁2号线", "id": 1.0, "index": 0, "stationid": 0, "location": 0.0 }, "geometry": { "type": "Point", "coordinates": [ 121.294879274079605, 31.190268554597314 ] } },
{ "type": "Feature", "properties": { "stationnames": "虹桥火车站", "linename": "地铁2号线(徐泾东-浦东国际机场)", "lon": 121.31698004097382, "lat": 31.195924559478133, "line": "地铁2号线", "id": 2.0, "index": 0, "stationid": 1, "location": 2.6205691405977505 }, "geometry": { "type": "Point", "coordinates": [ 121.316980040973817, 31.195924559478133 ] } },
{ "type": "Feature", "properties": { "stationnames": "虹桥2号航站楼", "linename": "地铁2号线(徐泾东-浦东国际机场)", "lon": 121.32176837670436, "lat": 31.19625238796522, "line": "地铁2号线", "id": 3.0, "index": 0, "stationid": 2, "location": 3.1556546659086733 }, "geometry": { "type": "Point", "coordinates": [ 121.321768376704355, 31.19625238796522 ] } },
{ "type": "Feature", "properties": { "stationnames": "淞虹路", "linename": "地铁2号线(徐泾东-浦东国际机场)", "lon": 121.35484187218567, "lat": 31.220001080800419, "line": "地铁2号线", "id": 4.0, "index": 0, "stationid": 3, "location": 9.9077525799398849 }, "geometry": { "type": "Point", "coordinates": [ 121.354841872185673, 31.220001080800419 ] } },
{ "type": "Feature", "properties": { "stationnames": "北新泾", "linename": "地铁2号线(徐泾东-浦东国际机场)", "lon": 121.36940501710461, "lat": 31.218305848849862, "line": "地铁2号线", "id": 5.0, "index": 0, "stationid": 4, "location": 11.548972627198818 }, "geometry": { "type": "Point", "coordinates": [ 121.369405017104611, 31.218305848849862 ] } },
{ "type": "Feature", "properties": { "stationnames": "威宁路", "linename": "地铁2号线(徐泾东-浦东国际机场)", "lon": 121.38242696981455, "lat": 31.216666701571704, "line": "地铁2号线", "id": 6.0, "index": 0, "stationid": 5, "location": 13.018835454770295 }, "geometry": { "type": "Point", "coordinates": [ 121.382426969814546, 31.216666701571704 ] } },
{ "type": "Feature", "properties": { "stationnames": "娄山关路", "linename": "地铁2号线(徐泾东-浦东国际机场)", "lon": 121.39918098507799, "lat": 31.212992156389081, "line": "地铁2号线", "id": 7.0, "index": 0, "stationid": 6, "location": 14.945835600260125 }, "geometry": { "type": "Point", "coordinates": [ 121.39918098507799, 31.212992156389081 ] } },
{ "type": "Feature", "properties": { "stationnames": "中山公园", "linename": "地铁2号线(徐泾东-浦东国际机场)", "lon": 121.4130296132186, "lat": 31.220268423403489, "line": "地铁2号线", "id": 8.0, "index": 0, "stationid": 7, "location": 16.852034661670821 }, "geometry": { "type": "Point", "coordinates": [ 121.413029613218598, 31.220268423403489 ] } },
{ "type": "Feature", "properties": { "stationnames": "江苏路", "linename": "地铁2号线(徐泾东-浦东国际机场)", "lon": 121.4278857845281, "lat": 31.221726714144122, "line": "地铁2号线", "id": 9.0, "index": 0, "stationid": 8, "location": 18.534535348570561 }, "geometry": { "type": "Point", "coordinates": [ 121.427885784528101, 31.221726714144122 ] } },
{ "type": "Feature", "properties": { "stationnames": "静安寺", "linename": "地铁2号线(徐泾东-浦东国际机场)", "lon": 121.44206072232642, "lat": 31.225258976577788, "line": "地铁2号线", "id": 10.0, "index": 0, "stationid": 9, "location": 20.270000796247199 }, "geometry": { "type": "Point", "coordinates": [ 121.442060722326417, 31.225258976577788 ] } },
{ "type": "Feature", "properties": { "stationnames": "南京西路", "linename": "地铁2号线(徐泾东-浦东国际机场)", "lon": 121.45550746198597, "lat": 31.231766432609415, "line": "地铁2号线", "id": 11.0, "index": 0, "stationid": 10, "location": 21.992312040780373 }, "geometry": { "type": "Point", "coordinates": [ 121.455507461985974, 31.231766432609415 ] } },
{ "type": "Feature", "properties": { "stationnames": "人民广场", "linename": "地铁2号线(徐泾东-浦东国际机场)", "lon": 121.46821242833369, "lat": 31.234776935502722, "line": "地铁2号线", "id": 12.0, "index": 0, "stationid": 11, "location": 23.477376462759512 }, "geometry": { "type": "Point", "coordinates": [ 121.468212428333686, 31.234776935502722 ] } },
{ "type": "Feature", "properties": { "stationnames": "南京东路", "linename": "地铁2号线(徐泾东-浦东国际机场)", "lon": 121.47924428412828, "lat": 31.239115352206532, "line": "地铁2号线", "id": 13.0, "index": 0, "stationid": 12, "location": 24.836163208756169 }, "geometry": { "type": "Point", "coordinates": [ 121.479244284128285, 31.239115352206532 ] } },
{ "type": "Feature", "properties": { "stationnames": "陆家嘴", "linename": "地铁2号线(徐泾东-浦东国际机场)", "lon": 121.49794977948896, "lat": 31.240191163422505, "line": "地铁2号线", "id": 14.0, "index": 0, "stationid": 13, "location": 26.973980880713128 }, "geometry": { "type": "Point", "coordinates": [ 121.497949779488962, 31.240191163422505 ] } },
{ "type": "Feature", "properties": { "stationnames": "东昌路", "linename": "地铁2号线(徐泾东-浦东国际机场)", "lon": 121.51103796264, "lat": 31.235388656455356, "line": "地铁2号线", "id": 15.0, "index": 0, "stationid": 14, "location": 28.559967612231087 }, "geometry": { "type": "Point", "coordinates": [ 121.511037962640003, 31.235388656455356 ] } },
{ "type": "Feature", "properties": { "stationnames": "世纪大道", "linename": "地铁2号线(徐泾东-浦东国际机场)", "lon": 121.52256449772648, "lat": 31.231001115347365, "line": "地铁2号线", "id": 16.0, "index": 0, "stationid": 15, "location": 29.968148743577544 }, "geometry": { "type": "Point", "coordinates": [ 121.522564497726478, 31.231001115347365 ] } },
{ "type": "Feature", "properties": { "stationnames": "上海科技馆", "linename": "地铁2号线(徐泾东-浦东国际机场)", "lon": 121.54058926688705, "lat": 31.220693375162313, "line": "地铁2号线", "id": 17.0, "index": 0, "stationid": 16, "location": 32.385100017664158 }, "geometry": { "type": "Point", "coordinates": [ 121.540589266887054, 31.220693375162313 ] } },
{ "type": "Feature", "properties": { "stationnames": "世纪公园", "linename": "地铁2号线(徐泾东-浦东国际机场)", "lon": 121.54668106357461, "lat": 31.211473397919562, "line": "地铁2号线", "id": 18.0, "index": 0, "stationid": 17, "location": 33.837725370794246 }, "geometry": { "type": "Point", "coordinates": [ 121.54668106357461, 31.211473397919562 ] } },
{ "type": "Feature", "properties": { "stationnames": "龙阳路", "linename": "地铁2号线(徐泾东-浦东国际机场)", "lon": 121.55315410718143, "lat": 31.205246218822072, "line": "地铁2号线", "id": 19.0, "index": 0, "stationid": 18, "location": 35.007743769843458 }, "geometry": { "type": "Point", "coordinates": [ 121.553154107181427, 31.205246218822072 ] } },
{ "type": "Feature", "properties": { "stationnames": "张江高科", "linename": "地铁2号线(徐泾东-浦东国际机场)", "lon": 121.58349951749913, "lat": 31.203955980483549, "line": "地铁2号线", "id": 20.0, "index": 0, "stationid": 19, "location": 38.440939085524185 }, "geometry": { "type": "Point", "coordinates": [ 121.583499517499135, 31.203955980483549 ] } },
{ "type": "Feature", "properties": { "stationnames": "金科路", "linename": "地铁2号线(徐泾东-浦东国际机场)", "lon": 121.59779898999221, "lat": 31.206361195146673, "line": "地铁2号线", "id": 21.0, "index": 0, "stationid": 20, "location": 40.063269985738934 }, "geometry": { "type": "Point", "coordinates": [ 121.597798989992214, 31.206361195146673 ] } },
{ "type": "Feature", "properties": { "stationnames": "广兰路", "linename": "地铁2号线(徐泾东-浦东国际机场)", "lon": 121.616970877916, "lat": 31.213087038552437, "line": "地铁2号线", "id": 22.0, "index": 0, "stationid": 21, "location": 42.416492790770626 }, "geometry": { "type": "Point", "coordinates": [ 121.616970877916003, 31.213087038552437 ] } },
{ "type": "Feature", "properties": { "stationnames": "唐镇", "linename": "地铁2号线(徐泾东-浦东国际机场)", "lon": 121.6519603736814, "lat": 31.216439195879548, "line": "地铁2号线", "id": 23.0, "index": 0, "stationid": 22, "location": 46.343020331465347 }, "geometry": { "type": "Point", "coordinates": [ 121.651960373681405, 31.216439195879548 ] } },
{ "type": "Feature", "properties": { "stationnames": "创新中路", "linename": "地铁2号线(徐泾东-浦东国际机场)", "lon": 121.66947937207654, "lat": 31.215646378853254, "line": "地铁2号线", "id": 24.0, "index": 0, "stationid": 23, "location": 48.379894090512039 }, "geometry": { "type": "Point", "coordinates": [ 121.669479372076538, 31.215646378853254 ] } },
{ "type": "Feature", "properties": { "stationnames": "华夏东路", "linename": "地铁2号线(徐泾东-浦东国际机场)", "lon": 121.67661293740724, "lat": 31.198740900586731, "line": "地铁2号线", "id": 25.0, "index": 0, "stationid": 24, "location": 50.823931224989487 }, "geometry": { "type": "Point", "coordinates": [ 121.676612937407242, 31.198740900586731 ] } },
{ "type": "Feature", "properties": { "stationnames": "川沙", "linename": "地铁2号线(徐泾东-浦东国际机场)", "lon": 121.69366412703502, "lat": 31.188714605347311, "line": "地铁2号线", "id": 26.0, "index": 0, "stationid": 25, "location": 54.096917531730654 }, "geometry": { "type": "Point", "coordinates": [ 121.693664127035021, 31.188714605347311 ] } },
{ "type": "Feature", "properties": { "stationnames": "凌空路", "linename": "地铁2号线(徐泾东-浦东国际机场)", "lon": 121.71974883887869, "lat": 31.194859707038599, "line": "地铁2号线", "id": 27.0, "index": 0, "stationid": 26, "location": 57.111294110157836 }, "geometry": { "type": "Point", "coordinates": [ 121.719748838878687, 31.194859707038599 ] } },
{ "type": "Feature", "properties": { "stationnames": "远东大道", "linename": "地铁2号线(徐泾东-浦东国际机场)", "lon": 121.75109526861247, "lat": 31.20142231923046, "line": "地铁2号线", "id": 28.0, "index": 0, "stationid": 27, "location": 60.723219109991035 }, "geometry": { "type": "Point", "coordinates": [ 121.751095268612474, 31.20142231923046 ] } },
{ "type": "Feature", "properties": { "stationnames": "海天三路", "linename": "地铁2号线(徐泾东-浦东国际机场)", "lon": 121.79262732526395, "lat": 31.17059448437195, "line": "地铁2号线", "id": 29.0, "index": 0, "stationid": 28, "location": 67.630090841976482 }, "geometry": { "type": "Point", "coordinates": [ 121.79262732526395, 31.17059448437195 ] } },
{ "type": "Feature", "properties": { "stationnames": "浦东国际机场", "linename": "地铁2号线(徐泾东-浦东国际机场)", "lon": 121.8022943168135, "lat": 31.151850927762165, "line": "地铁2号线", "id": 30.0, "index": 0, "stationid": 29, "location": 70.305879327601957 }, "geometry": { "type": "Point", "coordinates": [ 121.802294316813501, 31.151850927762165 ] } }
]
}
