{
"type": "FeatureCollection",
"crs": { "type": "name", "properties": { "name": "urn:ogc:def:crs:OGC:1.3:CRS84" } },
"features": [
{ "type": "Feature", "properties": { "stationnames": "东方体育中心", "linename": "地铁6号线(东方体育中心-港城路)", "lon": 121.47641932089934, "lat": 31.155350834666272, "line": "地铁6号线", "id": 1.0, "index": 0, "stationid": 0, "location": 0.0 }, "geometry": { "type": "Point", "coordinates": [ 121.476419320899339, 31.155350834666272 ] } },
{ "type": "Feature", "properties": { "stationnames": "灵岩南路", "linename": "地铁6号线(东方体育中心-港城路)", "lon": 121.4907807512009, "lat": 31.150759236698821, "line": "地铁6号线", "id": 2.0, "index": 0, "stationid": 1, "location": 1.7554119822856113 }, "geometry": { "type": "Point", "coordinates": [ 121.490780751200901, 31.150759236698821 ] } },
{ "type": "Feature", "properties": { "stationnames": "上南路", "linename": "地铁6号线(东方体育中心-港城路)", "lon": 121.50197223396043, "lat": 31.151212078372655, "line": "地铁6号线", "id": 3.0, "index": 0, "stationid": 2, "location": 3.0045875462161122 }, "geometry": { "type": "Point", "coordinates": [ 121.50197223396043, 31.151212078372655 ] } },
{ "type": "Feature", "properties": { "stationnames": "华夏西路", "linename": "地铁6号线(东方体育中心-港城路)", "lon": 121.51032466887634, "lat": 31.151915371003579, "line": "地铁6号线", "id": 4.0, "index": 0, "stationid": 3, "location": 3.9394967030469359 }, "geometry": { "type": "Point", "coordinates": [ 121.510324668876336, 31.151915371003579 ] } },
{ "type": "Feature", "properties": { "stationnames": "高青路", "linename": "地铁6号线(东方体育中心-港城路)", "lon": 121.51116206188087, "lat": 31.161896024996675, "line": "地铁6号线", "id": 5.0, "index": 0, "stationid": 4, "location": 5.6200993151888339 }, "geometry": { "type": "Point", "coordinates": [ 121.511162061880867, 31.161896024996675 ] } },
{ "type": "Feature", "properties": { "stationnames": "东明路", "linename": "地铁6号线(东方体育中心-港城路)", "lon": 121.50668637145672, "lat": 31.174656067198722, "line": "地铁6号线", "id": 6.0, "index": 0, "stationid": 5, "location": 7.3685108725274837 }, "geometry": { "type": "Point", "coordinates": [ 121.506686371456723, 31.174656067198722 ] } },
{ "type": "Feature", "properties": { "stationnames": "高科西路", "linename": "地铁6号线(东方体育中心-港城路)", "lon": 121.50563122200835, "lat": 31.187755286096078, "line": "地铁6号线", "id": 7.0, "index": 0, "stationid": 6, "location": 9.0916529203906897 }, "geometry": { "type": "Point", "coordinates": [ 121.505631222008347, 31.187755286096078 ] } },
{ "type": "Feature", "properties": { "stationnames": "临沂新村", "linename": "地铁6号线(东方体育中心-港城路)", "lon": 121.51263098246132, "lat": 31.195105946615818, "line": "地铁6号线", "id": 8.0, "index": 0, "stationid": 7, "location": 10.397641220424687 }, "geometry": { "type": "Point", "coordinates": [ 121.512630982461317, 31.195105946615818 ] } },
{ "type": "Feature", "properties": { "stationnames": "上海儿童医学中心", "linename": "地铁6号线(东方体育中心-港城路)", "lon": 121.51917819396897, "lat": 31.205179406929851, "line": "地铁6号线", "id": 9.0, "index": 0, "stationid": 8, "location": 11.903534362370452 }, "geometry": { "type": "Point", "coordinates": [ 121.519178193968969, 31.205179406929851 ] } },
{ "type": "Feature", "properties": { "stationnames": "蓝村路", "linename": "地铁6号线(东方体育中心-港城路)", "lon": 121.52340243635098, "lat": 31.213780240209896, "line": "地铁6号线", "id": 10.0, "index": 0, "stationid": 9, "location": 13.118175944909613 }, "geometry": { "type": "Point", "coordinates": [ 121.523402436350977, 31.213780240209896 ] } },
{ "type": "Feature", "properties": { "stationnames": "浦电路", "linename": "地铁6号线(东方体育中心-港城路)", "lon": 121.52460129864988, "lat": 31.222186500620069, "line": "地铁6号线", "id": 11.0, "index": 0, "stationid": 10, "location": 14.24501873461851 }, "geometry": { "type": "Point", "coordinates": [ 121.524601298649884, 31.222186500620069 ] } },
{ "type": "Feature", "properties": { "stationnames": "世纪大道", "linename": "地铁6号线(东方体育中心-港城路)", "lon": 121.52294453170926, "lat": 31.230804380039977, "line": "地铁6号线", "id": 12.0, "index": 0, "stationid": 11, "location": 15.434716130202432 }, "geometry": { "type": "Point", "coordinates": [ 121.522944531709257, 31.230804380039977 ] } },
{ "type": "Feature", "properties": { "stationnames": "源深体育中心", "linename": "地铁6号线(东方体育中心-港城路)", "lon": 121.5303781192306, "lat": 31.23510298598443, "line": "地铁6号线", "id": 13.0, "index": 0, "stationid": 12, "location": 16.470352934207234 }, "geometry": { "type": "Point", "coordinates": [ 121.530378119230605, 31.23510298598443 ] } },
{ "type": "Feature", "properties": { "stationnames": "民生路", "linename": "地铁6号线(东方体育中心-港城路)", "lon": 121.53920195387109, "lat": 31.238017424530764, "line": "地铁6号线", "id": 14.0, "index": 0, "stationid": 13, "location": 17.523358383846023 }, "geometry": { "type": "Point", "coordinates": [ 121.539201953871085, 31.238017424530764 ] } },
{ "type": "Feature", "properties": { "stationnames": "北洋泾路", "linename": "地铁6号线(东方体育中心-港城路)", "lon": 121.54820216609832, "lat": 31.241323256447291, "line": "地铁6号线", "id": 15.0, "index": 0, "stationid": 14, "location": 18.616484499808212 }, "geometry": { "type": "Point", "coordinates": [ 121.548202166098321, 31.241323256447291 ] } },
{ "type": "Feature", "properties": { "stationnames": "德平路", "linename": "地铁6号线(东方体育中心-港城路)", "lon": 121.56001903942567, "lat": 31.247537583586592, "line": "地铁6号线", "id": 16.0, "index": 0, "stationid": 15, "location": 20.163700729050593 }, "geometry": { "type": "Point", "coordinates": [ 121.560019039425669, 31.247537583586592 ] } },
{ "type": "Feature", "properties": { "stationnames": "云山路", "linename": "地铁6号线(东方体育中心-港城路)", "lon": 121.56855528149252, "lat": 31.252500559170624, "line": "地铁6号线", "id": 17.0, "index": 0, "stationid": 16, "location": 21.31288400393575 }, "geometry": { "type": "Point", "coordinates": [ 121.568555281492522, 31.252500559170624 ] } },
{ "type": "Feature", "properties": { "stationnames": "金桥路", "linename": "地铁6号线(东方体育中心-港城路)", "lon": 121.577672291279, "lat": 31.259321526734471, "line": "地铁6号线", "id": 18.0, "index": 0, "stationid": 17, "location": 22.665167669216157 }, "geometry": { "type": "Point", "coordinates": [ 121.577672291279001, 31.259321526734471 ] } },
{ "type": "Feature", "properties": { "stationnames": "博兴路", "linename": "地铁6号线(东方体育中心-港城路)", "lon": 121.582558374169, "lat": 31.265707833781502, "line": "地铁6号线", "id": 19.0, "index": 0, "stationid": 18, "location": 23.66797452229536 }, "geometry": { "type": "Point", "coordinates": [ 121.582558374168997, 31.265707833781502 ] } },
{ "type": "Feature", "properties": { "stationnames": "五莲路", "linename": "地铁6号线(东方体育中心-港城路)", "lon": 121.58385215495342, "lat": 31.274158219412605, "line": "地铁6号线", "id": 20.0, "index": 0, "stationid": 19, "location": 24.780002856869963 }, "geometry": { "type": "Point", "coordinates": [ 121.583852154953419, 31.274158219412605 ] } },
{ "type": "Feature", "properties": { "stationnames": "巨峰路", "linename": "地铁6号线(东方体育中心-港城路)", "lon": 121.5843034495347, "lat": 31.282642644306829, "line": "地铁6号线", "id": 21.0, "index": 0, "stationid": 20, "location": 25.886247810768019 }, "geometry": { "type": "Point", "coordinates": [ 121.584303449534701, 31.282642644306829 ] } },
{ "type": "Feature", "properties": { "stationnames": "东靖路", "linename": "地铁6号线(东方体育中心-港城路)", "lon": 121.58470032050364, "lat": 31.292804166405144, "line": "地铁6号线", "id": 22.0, "index": 0, "stationid": 21, "location": 27.21067531913792 }, "geometry": { "type": "Point", "coordinates": [ 121.584700320503643, 31.292804166405144 ] } },
{ "type": "Feature", "properties": { "stationnames": "五洲大道", "linename": "地铁6号线(东方体育中心-港城路)", "lon": 121.58519643460446, "lat": 31.304778392325137, "line": "地铁6号线", "id": 23.0, "index": 0, "stationid": 22, "location": 28.771643074509186 }, "geometry": { "type": "Point", "coordinates": [ 121.585196434604455, 31.304778392325137 ] } },
{ "type": "Feature", "properties": { "stationnames": "洲海路", "linename": "地铁6号线(东方体育中心-港城路)", "lon": 121.58522012272304, "lat": 31.314467276695584, "line": "地铁6号线", "id": 24.0, "index": 0, "stationid": 23, "location": 30.034050444007519 }, "geometry": { "type": "Point", "coordinates": [ 121.585220122723044, 31.314467276695584 ] } },
{ "type": "Feature", "properties": { "stationnames": "外高桥保税区南", "linename": "地铁6号线(东方体育中心-港城路)", "lon": 121.59776754571114, "lat": 31.323850273903048, "line": "地铁6号线", "id": 25.0, "index": 0, "stationid": 24, "location": 32.435682830414393 }, "geometry": { "type": "Point", "coordinates": [ 121.597767545711136, 31.323850273903048 ] } },
{ "type": "Feature", "properties": { "stationnames": "航津路", "linename": "地铁6号线(东方体育中心-港城路)", "lon": 121.58979206740331, "lat": 31.337539913037361, "line": "地铁6号线", "id": 26.0, "index": 0, "stationid": 25, "location": 34.428468347685993 }, "geometry": { "type": "Point", "coordinates": [ 121.589792067403309, 31.337539913037361 ] } },
{ "type": "Feature", "properties": { "stationnames": "外高桥保税区北", "linename": "地铁6号线(东方体育中心-港城路)", "lon": 121.58275158483998, "lat": 31.349936042105814, "line": "地铁6号线", "id": 27.0, "index": 0, "stationid": 26, "location": 36.224574820436722 }, "geometry": { "type": "Point", "coordinates": [ 121.582751584839983, 31.349936042105814 ] } },
{ "type": "Feature", "properties": { "stationnames": "港城路", "linename": "地铁6号线(东方体育中心-港城路)", "lon": 121.57062593248156, "lat": 31.355233767654038, "line": "地铁6号线", "id": 28.0, "index": 0, "stationid": 27, "location": 38.146691563918125 }, "geometry": { "type": "Point", "coordinates": [ 121.570625932481562, 31.355233767654038 ] } }
]
}
